[
    {
      "no": 1,
      "name": "Jimmy",
      "id": "123232",
      "location": "City A",
      "date": "11/17/2023",
      "status": "In progress",
      "phone": "09975551234",
      "issue": "Intermittent Connectivity"
    },
    {
      "no": 2,
      "name": "Jill",
      "id": "123231",
      "location": "City B",
      "date": "11/17/2023",
      "status": "New",
      "phone": "09975555678",
      "issue": "Device Connectivity"
    },
    {
      "no": 3,
      "name": "Bella",
      "id": "123233",
      "location": "City C",
      "date": "11/15/2023",
      "status": "Resolve",
      "phone": "09975559876",
      "issue": "Router Overheating"
    },
    {
      "no": 4,
      "name": "Alice Brown",
      "id": "123235",
      "location": "City D",
      "date": "01/17/2023",
      "status": "In progress",
      "phone": "09975552468",
      "issue": "Intermittent Connectivity"
    },
    {
      "no": 5,
      "name": "Charlie Wilson",
      "id": "123236",
      "location": "City E",
      "date": "11/16/2023",
      "status": "New",
      "phone": "09975551357",
      "issue": "No Internet Access"
    },
    {
      "no": 6,
      "name": "John",
      "id": "123234",
      "location": "City F",
      "date": "01/17/2023",
      "status": "In progress",
      "phone": "09975551234",
      "issue": "Device Connectivity"
    },
    {
      "no": 7,
      "name": "Jane Smith",
      "id": "123237",
      "location": "City G",
      "date": "01/17/2023",
      "status": "New",
      "phone": "09975555678",
      "issue": "Network Password or Security Concerns"
    },
    {
      "no": 8,
      "name": "Bob Johnson",
      "id": "123238",
      "location": "City H",
      "date": "11/14/2023",
      "status": "Resolve",
      "phone": "09975559876",
      "issue": "Intermittent Connectivity"
    },
    {
      "no": 9,
      "name": "Rose",
      "id": "123239",
      "location": "City I",
      "date": "11/11/2023",
      "status": "In progress",
      "phone": "09975552468",
      "issue": "Intermittent Connectivity"
    },
    {
      "no": 10,
      "name": "Jack",
      "id": "123240",
      "location": "City J",
      "date": "11/14/2023",
      "status": "New",
      "phone": "09975551357",
      "issue": "No Internet Access"
    },
    {
      "no": 11,
      "name": "Alice Brown",
      "id": "123241",
      "location": "City K",
      "date": "11/12/2023",
      "status": "In progress",
      "phone": "09975552468",
      "issue": "Device Connectivity"
    },
    {
        "no": 12,
        "name": "Alice",
        "id": "123242",
        "location": "City L",
        "date": "11/14/2023",
        "status": "In progress",
        "phone": "09975552268",
        "issue": "Router Overheating"
    },
    {
      "no": 13,
      "name": "John Doe",
      "id": "123243",
      "location": "City A",
      "date": "11/10/2023",
      "status": "In progress",
      "phone": "09975551234",
      "issue": "No Internet Access"
    },
    {
      "no": 14,
      "name": "Jane Smith",
      "id": "123244",
      "location": "City B",
      "date": "11/18/2023",
      "status": "New",
      "phone": "09975555678",
      "issue": "No Internet Access"
    },
    {
      "no": 15,
      "name": "Bob Johnson",
      "id": "123245",
      "location": "City C",
      "date": "11/14/2023",
      "status": "Resolve",
      "phone": "09975559876",
      "issue": "Device Connectivity"
    },
    {
      "no": 16,
      "name": "Kitty",
      "id": "123246",
      "location": "City D",
      "date": "11/11/2023",
      "status": "In progress",
      "phone": "09975552468",
      "issue": "Device Connectivity"
    },
    {
      "no": 17,
      "name": "Charlie Wilson",
      "id": "123247",
      "location": "City E",
      "date": "11/14/2023",
      "status": "New",
      "phone": "09975551357",
      "issue": "Intermittent Connectivity"
    },
    {
      "no": 18,
      "name": "John Doe",
      "id": "123248",
      "location": "City F",
      "date": "11/14/2023",
      "status": "In progress",
      "phone": "09975551234",
      "issue": "No Internet Access"
    },
    {
      "no": 19,
      "name": "Jane Smith",
      "id": "123249",
      "location": "City G",
      "date": "11/20/2023",
      "status": "New",
      "phone": "09975555678",
      "issue": "Device Connectivity"
    },
    {
      "no": 20,
      "name": "Bob Johnson",
      "id": "123250",
      "location": "City H",
      "date": "11/21/2023",
      "status": "Resolve",
      "phone": "09975559876",
      "issue": "Device Connectivity"
    },
    {
      "no": 21,
      "name": "Alice Brown",
      "id": "123251",
      "location": "City I",
      "date": "11/21/2023",
      "status": "In progress",
      "phone": "09975552468",
      "issue": "Router Overheating"
    },
    {
      "no": 22,
      "name": "Charlie Wilson",
      "id": "123252",
      "location": "City J",
      "date": "11/22/2023",
      "status": "New",
      "phone": "09975551357",
      "issue": "Intermittent Connectivity"
    },
    {
      "no": 23,
      "name": "Alice Brown",
      "id": "123253",
      "location": "City K",
      "date": "11/22/2023",
      "status": "In progress",
      "phone": "09975552468",
      "issue": "No Internet Access"
    },
    {
        "no": 24,
        "name": "Alice",
        "id": "123254",
        "location": "City L",
        "date": "11/23/2023",
        "status": "In progress",
        "phone": "09975552268",
        "issue": "Router Overheating"
    },
    {
      "no": 25,
      "name": "John Doe",
      "id": "123255",
      "location": "City A",
      "date": "11/23/2023",
      "status": "In progress",
      "phone": "09975551234",
      "issue": "Device Connectivity"
    },
    {
      "no": 26,
      "name": "Jane Smith",
      "id": "123256",
      "location": "City B",
      "date": "11/23/2023",
      "status": "New",
      "phone": "09975555678",
      "issue": "Intermittent Connectivity"
    },
    {
      "no": 27,
      "name": "Bob Johnson",
      "id": "123257",
      "location": "City C",
      "date": "11/23/2023",
      "status": "Resolve",
      "phone": "09975559876",
      "issue": "No Internet Access"
    },
    {
      "no": 28,
      "name": "Alice Brown",
      "id": "123258",
      "location": "City D",
      "date": "11/23/2023",
      "status": "In progress",
      "phone": "09975552468",
      "issue": "Router Overheating"
    },
    {
      "no": 29,
      "name": "Charlie Wilson",
      "id": "123259",
      "location": "City E",
      "date": "11/23/2023",
      "status": "New",
      "phone": "09975551357",
      "issue": "Device Connectivity"
    },
    {
      "no": 30,
      "name": "John Doe",
      "id": "123260",
      "location": "City F",
      "date": "11/25/2023",
      "status": "In progress",
      "phone": "09975551234",
      "issue": "Device Connectivity"
    },
    {
      "no": 31,
      "name": "Jane Smith",
      "id": "123261",
      "location": "City G",
      "date": "11/25/2023",
      "status": "New",
      "phone": "09975555678",
      "issue": "No Internet Access"
    },
    {
      "no": 32,
      "name": "Bob Johnson",
      "id": "123262",
      "location": "City H",
      "date": "11/25/2023",
      "status": "Resolve",
      "phone": "09975559876",
      "issue": "Router Overheating"
    },
    {
      "no": 33,
      "name": "Alice Brown",
      "id": "123263",
      "location": "City I",
      "date": "11/25/2023",
      "status": "In progress",
      "phone": "09975552468",
      "issue": "Slow Internet Speed"
    },
    {
      "no": 34,
      "name": "Charlie Wilson",
      "id": "123264",
      "location": "City J",
      "date": "11/25/2023",
      "status": "New",
      "phone": "09975552357",
      "issue": "Device Connectivity"
    },
    {
      "no": 35,
      "name": "Alice Brown",
      "id": "123265",
      "location": "City K",
      "date": "11/25/2023",
      "status": "In progress",
      "phone": "09975552468",
      "issue": "No Internet Access"
    },
    {
        "no": 36,
        "name": "Alice",
        "id": "123266",
        "location": "City L",
        "date": "11/25/2023",
        "status": "In progress",
        "phone": "09975552268",
        "issue": "Router Overheating"
    },
    {
      "no": 37,
      "name": "John Doe",
      "id": "123267",
      "location": "City A",
      "date": "11/25/2023",
      "status": "In progress",
      "phone": "09975551234",
      "issue": "Device Connectivity"
    },
    {
      "no": 38,
      "name": "Jane Smith",
      "id": "123268",
      "location": "City B",
      "date": "11/26/2023",
      "status": "New",
      "phone": "09975555678",
      "issue": "No Internet Access"
    },
    {
      "no": 39,
      "name": "Bob Johnson",
      "id": "123269",
      "location": "City C",
      "date": "11/26/2023",
      "status": "Resolve",
      "phone": "09975559876",
      "issue": "Router Overheating"
    },
    {
      "no": 40,
      "name": "Alice Brown",
      "id": "123270",
      "location": "City D",
      "date": "11/26/2023",
      "status": "In progress",
      "phone": "09975552468",
      "issue": "Network Password or Security Concerns"
    },
    {
      "no": 41,
      "name": "Charlie Wilson",
      "id": "123271",
      "location": "City E",
      "date": "11/26/2023",
      "status": "New",
      "phone": "09975551357",
      "issue": "Device Connectivity"
    },
    {
      "no": 42,
      "name": "John Doe",
      "id": "123272",
      "location": "City F",
      "date": "11/26/2023",
      "status": "In progress",
      "phone": "09975551234",
      "issue": "Slow Internet Speed"
    },
    {
      "no": 43,
      "name": "Jane Smith",
      "id": "123273",
      "location": "City G",
      "date": "11/26/2023",
      "status": "New",
      "phone": "09975555678",
      "issue": "Router Overheating"
    },
    {
      "no": 44,
      "name": "Bob Johnson",
      "id": "123274",
      "location": "City H",
      "date": "11/26/2023",
      "status": "Resolve",
      "phone": "09975559876",
      "issue": "No Internet Access"
    },
    {
      "no": 45,
      "name": "Bob Johnson",
      "id": "123275",
      "location": "City H",
      "date": "11/29/2023",
      "status": "Resolve",
      "phone": "09975559876",
      "issue": "Router Overheating"
    },
    {
      "no": 46,
      "name": "John Doe",
      "id": "123232",
      "location": "City A",
      "date": "11/17/2023",
      "status": "In progress",
      "phone": "09975551234",
      "issue": "Slow Internet Speed"
    },
    {
      "no": 47,
      "name": "Jane Smith",
      "id": "123231",
      "location": "City B",
      "date": "11/17/2023",
      "status": "New",
      "phone": "09975555678",
      "issue": "Network Password or Security Concerns"
    },
    {
      "no": 48,
      "name": "Bob Johnson",
      "id": "123233",
      "location": "City C",
      "date": "11/15/2023",
      "status": "Resolve",
      "phone": "09975559876",
      "issue": "No Internet Access"
    },
    {
      "no": 49,
      "name": "Alice Brown",
      "id": "123235",
      "location": "City D",
      "date": "01/17/2023",
      "status": "In progress",
      "phone": "09975552468",
      "issue": "Router Overheating"
    },
    {
      "no": 50,
      "name": "Charlie",
      "id": "123236",
      "location": "City E",
      "date": "11/16/2023",
      "status": "New",
      "phone": "09975551357",
      "issue": "Device Connectivity"
    },
    {
      "no": 51,
      "name": "John Doe",
      "id": "123234",
      "location": "City F",
      "date": "01/17/2023",
      "status": "In progress",
      "phone": "09975551234",
      "issue": "Router Overheating"
    },
    {
      "no": 52,
      "name": "Jane Smith",
      "id": "123237",
      "location": "City G",
      "date": "01/17/2023",
      "status": "New",
      "phone": "09975555678",
      "issue": "No Internet Access"
    },
    {
      "no": 53,
      "name": "Bob Johnson",
      "id": "123238",
      "location": "City H",
      "date": "11/14/2023",
      "status": "Resolve",
      "phone": "09975559876",
      "issue": "Router Overheating"
    },
    {
      "no": 54,
      "name": "Alice Brown",
      "id": "123239",
      "location": "City I",
      "date": "11/11/2023",
      "status": "In progress",
      "phone": "09975552468",
      "issue": "Network Password or Security Concerns"
    },
    {
      "no": 55,
      "name": "Charlie Wilson",
      "id": "123240",
      "location": "City J",
      "date": "11/14/2023",
      "status": "New",
      "phone": "09975551357",
      "issue": "No Internet Access"
    },
    {
      "no": 56,
      "name": "Alice Brown",
      "id": "123241",
      "location": "City K",
      "date": "11/12/2023",
      "status": "In progress",
      "phone": "09975552468",
      "issue": "Slow Internet Speed"
    },
    {
        "no": 57,
        "name": "Alice",
        "id": "123242",
        "location": "City L",
        "date": "11/14/2023",
        "status": "In progress",
        "phone": "09975552268",
        "issue": "Router Overheating"
    },
    {
      "no": 58,
      "name": "John Doe",
      "id": "123243",
      "location": "City A",
      "date": "11/10/2023",
      "status": "In progress",
      "phone": "09975551234",
      "issue": "Network Password or Security Concerns"
    },
    {
      "no": 59,
      "name": "Jane Smith",
      "id": "123244",
      "location": "City B",
      "date": "11/18/2023",
      "status": "New",
      "phone": "09975555678",
      "issue": "Slow Internet Speed"
    },
    {
      "no": 60,
      "name": "Bob Johnson",
      "id": "123245",
      "location": "City C",
      "date": "11/14/2023",
      "status": "Resolve",
      "phone": "09975559876",
      "issue": "Router Overheating"
    },
    {
      "no": 61,
      "name": "Jack",
      "id": "123246",
      "location": "City C",
      "date": "11/14/2023",
      "status": "Resolve",
      "phone": "09975559876",
      "issue": "No Internet Access"
    },
    {
      "no": 62,
      "name": "Charlie",
      "id": "123266",
      "location": "City J",
      "date": "11/22/2023",
      "status": "New",
      "phone": "09975551357",
      "issue": "Network Password or Security Concerns"
    },
    {
      "no": 63,
      "name": "Alice Brown",
      "id": "123261",
      "location": "City K",
      "date": "11/22/2023",
      "status": "In progress",
      "phone": "09975552468",
      "issue": "Slow Internet Speed"
    },
    {
        "no": 64,
        "name": "Alice",
        "id": "123267",
        "location": "City L",
        "date": "11/23/2023",
        "status": "In progress",
        "phone": "09975552268",
        "issue": "Network Password or Security Concerns"
    },
    {
      "no": 65,
      "name": "John Doe",
      "id": "123266",
      "location": "City A",
      "date": "11/23/2023",
      "status": "In progress",
      "phone": "09975551234",
      "issue": "Router Overheating"
    },
    {
      "no": 66,
      "name": "Jane Smith",
      "id": "123265",
      "location": "City B",
      "date": "11/23/2023",
      "status": "New",
      "phone": "09975555678",
      "issue": "Slow Internet Speed"
    },
    {
      "no": 67,
      "name": "Bob Johnson",
      "id": "123267",
      "location": "City C",
      "date": "11/23/2023",
      "status": "Resolve",
      "phone": "09975559876",
      "issue": "Network Password or Security Concerns"
    },
    {
      "no": 68,
      "name": "Alice Brown",
      "id": "123268",
      "location": "City D",
      "date": "11/23/2023",
      "status": "In progress",
      "phone": "09975552468",
      "issue": "Slow Internet Speed"
    },
    {
      "no": 69,
      "name": "Charlie Wilson",
      "id": "123269",
      "location": "City E",
      "date": "11/23/2023",
      "status": "New",
      "phone": "09975551357",
      "issue": "Router Overheating"
    },
    {
      "no": 70,
      "name": "John Doe",
      "id": "123270",
      "location": "City F",
      "date": "11/25/2023",
      "status": "In progress",
      "phone": "09975551234",
      "issue": "Network Password or Security Concerns"
      },
    {
      "no": 71,
      "name": "Doe",
      "id": "123271",
      "location": "City F",
      "date": "11/25/2023",
      "status": "New",
      "phone": "09975551234",
      "issue": "Network Password or Security Concerns"
    },
    {
      "no": 72,
      "name": "Tracy",
      "id": "123273",
      "location": "City F",
      "date": "11/25/2023",
      "status": "New",
      "phone": "09975551239",
      "issue": "Slow Internet Speed"
    },
    {
      "no": 73,
      "name": "Rose",
      "id": "123273",
      "location": "City F",
      "date": "11/25/2023",
      "status": "New",
      "phone": "09975551234",
      "issue": "Network Password or Security Concerns"
    },
          {
              "no": 74,
              "name": "Alice",
              "id": "123274",
              "location": "City L",
              "date": "11/23/2023",
              "status": "In progress",
              "phone": "09975552268",
              "issue": "Network Password or Security Concerns"
          },
          {
            "no": 75,
            "name": "John Doe",
            "id": "123275",
            "location": "City A",
            "date": "11/23/2023",
            "status": "In progress",
            "phone": "09975551234",
            "issue": "Router Overheating"
          },
          {
            "no": 76,
            "name": "Jane Smith",
            "id": "123276",
            "location": "City B",
            "date": "11/23/2023",
            "status": "New",
            "phone": "09975555678",
            "issue": "Network Password or Security Concerns"
          },
          {
            "no": 77,
            "name": "Bob Johnson",
            "id": "123277",
            "location": "City C",
            "date": "11/23/2023",
            "status": "Resolve",
            "phone": "09975559876",
            "issue": "Slow Internet Speed"
          },
          {
            "no": 78,
            "name": "Alice Brown",
            "id": "123278",
            "location": "City D",
            "date": "11/23/2023",
            "status": "In progress",
            "phone": "09975552468",
            "issue": "Network Password or Security Concerns"
          },
          {
            "no": 79,
            "name": "Charlie Wilson",
            "id": "123279",
            "location": "City E",
            "date": "11/23/2023",
            "status": "New",
            "phone": "09975551357",
            "issue": "Slow Internet Speed"
          },
          {
            "no": 80,
            "name": "Wan",
            "id": "123280",
            "location": "City F",
            "date": "11/25/2023",
            "status": "In progress",
            "phone": "09975551234",
            "issue": "Intermittent Connectivity"
            },
    {
      "no": 81,
      "name": "Jimmy",
      "id": "123281",
      "location": "City A",
      "date": "11/17/2023",
      "status": "In progress",
      "phone": "09975551234",
      "issue": "Intermittent Connectivity"
    },
    {
      "no": 82,
      "name": "Jill",
      "id": "123282",
      "location": "City B",
      "date": "11/17/2023",
      "status": "New",
      "phone": "09975555678",
      "issue": "Device Connectivity"
    },
    {
      "no": 83,
      "name": "Bella",
      "id": "123283",
      "location": "City C",
      "date": "11/15/2023",
      "status": "Resolve",
      "phone": "09975559876",
      "issue": "Router Overheating"
    },
    {
      "no": 84,
      "name": "Alice Brown",
      "id": "123284",
      "location": "City D",
      "date": "01/17/2023",
      "status": "In progress",
      "phone": "09975552468",
      "issue": "Intermittent Connectivity"
    },
    {
      "no": 85,
      "name": "Charlie Wilson",
      "id": "123285",
      "location": "City E",
      "date": "11/16/2023",
      "status": "New",
      "phone": "09975551357",
      "issue": "No Internet Access"
    },
    {
      "no": 86,
      "name": "John",
      "id": "123286",
      "location": "City F",
      "date": "01/17/2023",
      "status": "In progress",
      "phone": "09975551234",
      "issue": "Device Connectivity"
    },
    {
      "no": 87,
      "name": "Jane Smith",
      "id": "123287",
      "location": "City G",
      "date": "01/17/2023",
      "status": "New",
      "phone": "09975555678",
      "issue": "Network Password or Security Concerns"
    },
    {
      "no": 88,
      "name": "Bob Johnson",
      "id": "123289",
      "location": "City H",
      "date": "11/14/2023",
      "status": "Resolve",
      "phone": "09975559876",
      "issue": "Intermittent Connectivity"
    },
    {
      "no": 89,
      "name": "Rose",
      "id": "123289",
      "location": "City I",
      "date": "11/11/2023",
      "status": "In progress",
      "phone": "09975552468",
      "issue": "Intermittent Connectivity"
    },
    {
      "no": 90,
      "name": "Jack",
      "id": "123290",
      "location": "City J",
      "date": "11/14/2023",
      "status": "New",
      "phone": "09975551357",
      "issue": "No Internet Access"
    } 
           
 
  ]
  
